{"name": "puri knight riders", "datetime": "23/09/2020 19:49:20", "city": "puri", "latitude": "19\u00b0 48' 00\" N", "longitude": "85\u00b0 51' 00\" E", "latitude_decimal": 19.8, "longitude_decimal": 85.85}
{"name": "puri 64", "datetime": "10/01/2022 18:11:19", "city": "puri", "latitude": "19\u00b0 48' 00\" N", "longitude": "85\u00b0 51' 00\" E", "latitude_decimal": 19.8, "longitude_decimal": 85.85}
{"name": "puri 26", "datetime": "14/09/2020 07:12:59", "city": "puri", "latitude": "19\u00b0 48' 00\" N", "longitude": "85\u00b0 51' 00\" E", "latitude_decimal": 19.8, "longitude_decimal": 85.85}
{"name": "puri 68", "datetime": "03/07/2020 08:32:39", "city": "puri", "latitude": "19\u00b0 48' 00\" N", "longitude": "85\u00b0 51' 00\" E", "latitude_decimal": 19.8, "longitude_decimal": 85.85}
{"name": "puri 36", "datetime": "02/11/2019 14:02:36", "city": "puri", "latitude": "19\u00b0 48' 00\" N", "longitude": "85\u00b0 51' 00\" E", "latitude_decimal": 19.8, "longitude_decimal": 85.85}
{"name": "puri 36 zomato", "datetime": "02/11/2019 14:02:36", "city": "puri", "latitude": "19\u00b0 48' 00\" N", "longitude": "85\u00b0 51' 00\" E", "latitude_decimal": 19.8, "longitude_decimal": 85.85}
{"name": "puri 42 cm moharastra election", "datetime": "12/11/2019 15:27:51", "city": "puri", "latitude": "19\u00b0 48' 00\" N", "longitude": "85\u00b0 51' 00\" E", "latitude_decimal": 19.8, "longitude_decimal": 85.85}
{"name": "test london", "datetime": "01/01/2020 18:00:00", "city": "london, uk", "latitude": "37\u00b0 7' 42.00\" N", "longitude": "84\u00b0 5' 0.81\" W", "latitude_decimal": 37.12833333333333, "longitude_decimal": -84.08355833333333}
{"name": "Milan", "datetime": "05/09/1999 17:56:00", "city": "port huron, usa", "latitude": "42\u00b0 58' 33.91\" N", "longitude": "82\u00b0 26' 0.15\" W", "latitude_decimal": 42.976086111111115, "longitude_decimal": -82.433375, "timezone": "America/New_York (UTC-5:00)", "dst": true}
{"name": "Mihir", "datetime": "20/12/1969 22:55:00", "city": "bhubaneswar, india", "latitude": "20\u00b0 14' 00\" N", "longitude": "85\u00b0 50' 00\" E", "latitude_decimal": 20.233333333333334, "longitude_decimal": 85.83333333333333, "timezone": "Asia/Kolkata (UTC+05:00)", "dst": true}
{"name": "Om", "datetime": "03/01/2006 01:32:08", "city": "Howell, Michigan,  US", "latitude": "42\u00b0 36' 26.12\" N", "longitude": "83\u00b0 55' 45.82\" W", "latitude_decimal": 42.607255555555554, "longitude_decimal": -83.92939444444445, "timezone": "America/Detroit (UTC-5:00)", "dst": true}
{"name": "puri2", "datetime": "15/06/2011 13:50:00", "city": "puri, india", "latitude": "19\u00b0 48' 00\" N", "longitude": "85\u00b0 51' 00\" E", "latitude_decimal": 19.8, "longitude_decimal": 85.85, "timezone": "Asia/Kolkata (UTC+05:00)", "dst": true}
